$GPRMC,205933.000,A,2654.6413,S,04904.8948,W,10.65,137.79,151115,,,A*57
$GPGGA,205934.000,2654.6440,S,04904.8928,W,1,6,1.16,28.0,M,1.7,M,,*57
$GPRMC,205934.000,A,2654.6440,S,04904.8928,W,11.54,142.08,151115,,,A*57
$GPGGA,205935.000,2654.6466,S,04904.8908,W,1,6,1.16,28.1,M,1.7,M,,*51
$GPRMC,205935.000,A,2654.6466,S,04904.8908,W,11.46,149.62,151115,,,A*54
$GPGGA,205936.000,2654.6498,S,04904.8900,W,1,6,1.16,27.7,M,1.7,M,,*52
$GPRMC,205936.000,A,2654.6498,S,04904.8900,W,12.86,160.98,151115,,,A*5F
$GPGGA,205937.000,2654.6537,S,04904.8893,W,1,6,1.16,27.4,M,1.7,M,,*5F
$GPRMC,205937.000,A,2654.6537,S,04904.8893,W,15.88,172.10,151115,,,A*5B
$GPGGA,205938.000,2654.6581,S,04904.8893,W,1,6,1.27,26.9,M,1.7,M,,*53
$GPRMC,205938.000,A,2654.6581,S,04904.8893,W,15.72,176.14,151115,,,A*5C
$GPGGA,205939.000,2654.6626,S,04904.8890,W,1,6,1.27,26.7,M,1.7,M,,*51
$GPRMC,205939.000,A,2654.6626,S,04904.8890,W,16.03,173.86,151115,,,A*5B
$GPGGA,205940.000,2654.6670,S,04904.8884,W,1,6,1.16,25.8,M,1.7,M,,*57
$GPRMC,205940.000,A,2654.6670,S,04904.8884,W,15.97,169.10,151115,,,A*59
$GPGGA,205941.000,2654.6713,S,04904.8873,W,1,6,1.16,25.4,M,1.7,M,,*56
$GPRMC,205941.000,A,2654.6713,S,04904.8873,W,14.71,163.30,151115,,,A*55
$GPGGA,205942.000,2654.6750,S,04904.8858,W,1,6,1.16,25.2,M,1.7,M,,*5D
$GPRMC,205942.000,A,2654.6750,S,04904.8858,W,13.79,153.29,151115,,,A*5C
$GPRMC,210013.000,A,2654.7927,S,04904.7134,W,25.91,113.24,151115,,,A*5C
$GPGGA,210014.000,2654.7956,S,04904.7061,W,1,6,1.16,13.3,M,1.7,M,,*53
$GPRMC,210014.000,A,2654.7956,S,04904.7061,W,25.87,114.27,151115,,,A*5F
$GPGGA,210015.000,2654.7986,S,04904.6988,W,1,6,1.16,13.0,M,1.7,M,,*53
$GPRMC,210015.000,A,2654.7986,S,04904.6988,W,26.13,114.82,151115,,,A*5D
$GPGGA,210016.000,2654.8016,S,04904.6915,W,1,6,1.16,12.6,M,1.7,M,,*5C
$GPRMC,210016.000,A,2654.8016,S,04904.6915,W,26.25,113.80,151115,,,A*55
$GPGGA,210017.000,2654.8045,S,04904.6841,W,1,6,1.16,12.2,M,1.7,M,,*5F
$GPRMC,210017.000,A,2654.8045,S,04904.6841,W,26.22,112.93,151115,,,A*56
$GPGGA,210018.000,2654.8074,S,04904.6766,W,1,6,1.16,11.8,M,1.7,M,,*51
$GPRMC,210018.000,A,2654.8074,S,04904.6766,W,26.47,112.07,151115,,,A*5F
$GPGGA,210019.000,2654.8102,S,04904.6690,W,1,6,1.16,11.3,M,1.7,M,,*53
$GPRMC,210019.000,A,2654.8102,S,04904.6690,W,26.81,111.54,151115,,,A*59
$GPGGA,210020.000,2654.8129,S,04904.6613,W,1,6,1.16,10.8,M,1.7,M,,*51
$GPRMC,210020.000,A,2654.8129,S,04904.6613,W,26.71,109.15,151115,,,A*52
$GPGGA,210021.000,2654.8154,S,04904.6534,W,1,6,1.16,10.3,M,1.7,M,,*57
$GPRMC,210021.000,A,2654.8154,S,04904.6534,W,26.77,107.99,151115,,,A*53
$GPGGA,210022.000,2654.8177,S,04904.6455,W,1,6,1.16,9.9,M,1.7,M,,*61
$GPRMC,210022.000,A,2654.8177,S,04904.6455,W,26.85,107.25,151115,,,A*5D
$GPGGA,210053.000,2654.8490,S,04904.5413,W,1,7,1.07,5.4,M,1.7,M,,*6A
$GPRMC,210053.000,A,2654.8490,S,04904.5413,W,0.01,108.95,151115,,,A*6A
$GPGGA,210054.000,2654.8491,S,04904.5413,W,1,7,1.07,5.4,M,1.7,M,,*6C
$GPRMC,210054.000,A,2654.8491,S,04904.5413,W,0.00,108.95,151115,,,A*6D
$GPGGA,210055.000,2654.8491,S,04904.5413,W,1,7,1.07,5.4,M,1.7,M,,*6D
$GPRMC,210055.000,A,2654.8491,S,04904.5413,W,0.00,108.95,151115,,,A*6C
$GPGGA,210056.000,2654.8491,S,04904.5413,W,1,7,1.07,5.4,M,1.7,M,,*6E
$GPRMC,210056.000,A,2654.8491,S,04904.5413,W,0.02,108.95,151115,,,A*6D
$GPGGA,210057.000,2654.8491,S,04904.5413,W,1,7,1.07,5.4,M,1.7,M,,*6F
$GPRMC,210057.000,A,2654.8491,S,04904.5413,W,0.01,108.95,151115,,,A*6F
$GPGGA,210058.000,2654.8491,S,04904.5413,W,1,7,1.07,5.4,M,1.7,M,,*60
$GPRMC,210058.000,A,2654.8491,S,04904.5413,W,0.00,108.95,151115,,,A*61
$GPGGA,210059.000,2654.8491,S,04904.5413,W,1,7,1.07,5.4,M,1.7,M,,*61
$GPRMC,210059.000,A,2654.8491,S,04904.5413,W,0.00,108.95,151115,,,A*60
$GPGGA,210100.000,2654.8491,S,04904.5413,W,1,7,1.07,5.4,M,1.7,M,,*6C
$GPRMC,210100.000,A,2654.8491,S,04904.5413,W,0.00,108.95,151115,,,A*6D
$GPGGA,210101.000,2654.8491,S,04904.5413,W,1,7,1.07,5.5,M,1.7,M,,*6C
$GPRMC,210101.000,A,2654.8491,S,04904.5413,W,0.00,108.95,151115,,,A*6C
$GPGGA,210102.000,2654.8491,S,04904.5413,W,1,7,1.07,5.5,M,1.7,M,,*6F
$GPRMC,210102.000,A,2654.8491,S,04904.5413,W,0.00,108.95,151115,,,A*6F
$GPGGA,210133.000,2654.9030,S,04904.4247,W,1,7,1.07,-0.5,M,1.7,M,,*4D
$GPRMC,210133.000,A,2654.9030,S,04904.4247,W,20.31,127.04,151115,,,A*50
$GPGGA,210134.000,2654.9064,S,04904.4194,W,1,7,1.07,-1.0,M,1.7,M,,*42
$GPRMC,210134.000,A,2654.9064,S,04904.4194,W,20.65,127.11,151115,,,A*5E
$GPGGA,210135.000,2654.9099,S,04904.4141,W,1,7,1.07,-1.4,M,1.7,M,,*4D
$GPRMC,210135.000,A,2654.9099,S,04904.4141,W,20.92,127.10,151115,,,A*5C
$GPGGA,210136.000,2654.9134,S,04904.4087,W,1,7,1.07,-1.8,M,1.7,M,,*4F
$GPRMC,210136.000,A,2654.9134,S,04904.4087,W,21.22,126.85,151115,,,A*55
$GPGGA,210137.000,2654.9170,S,04904.4033,W,1,7,1.07,-2.1,M,1.7,M,,*4B
$GPRMC,210137.000,A,2654.9170,S,04904.4033,W,21.51,126.37,151115,,,A*56
$GPGGA,210138.000,2654.9207,S,04904.3976,W,1,7,1.07,-2.4,M,1.7,M,,*4D
$GPRMC,210138.000,A,2654.9207,S,04904.3976,W,22.54,126.06,151115,,,A*51
$GPGGA,210139.000,2654.9247,S,04904.3915,W,1,7,1.07,-2.6,M,1.7,M,,*4F
$GPRMC,210139.000,A,2654.9247,S,04904.3915,W,25.35,125.93,151115,,,A*5E
$GPGGA,210140.000,2654.9291,S,04904.3846,W,1,7,1.07,-2.9,M,1.7,M,,*42
$GPRMC,210140.000,A,2654.9291,S,04904.3846,W,28.47,125.49,151115,,,A*53
$GPGGA,210141.000,2654.9340,S,04904.3770,W,1,7,1.07,-2.9,M,1.7,M,,*44
$GPRMC,210141.000,A,2654.9340,S,04904.3770,W,30.85,125.36,151115,,,A*5A
$GPGGA,210142.000,2654.9389,S,04904.3690,W,1,7,1.07,-3.1,M,1.7,M,,*44
$GPRMC,210142.000,A,2654.9389,S,04904.3690,W,31.31,124.87,151115,,,A*56
$GPGGA,210213.000,2654.9929,S,04904.3080,W,1,7,1.24,-7.8,M,1.7,M,,*48
$GPRMC,210213.000,A,2654.9929,S,04904.3080,W,0.00,141.20,151115,,,A*68
$GPGGA,210214.000,2654.9929,S,04904.3080,W,1,7,1.07,-7.8,M,1.7,M,,*4E
$GPRMC,210214.000,A,2654.9929,S,04904.3080,W,0.00,141.20,151115,,,A*6F
$GPGGA,210215.000,2654.9929,S,04904.3080,W,1,7,1.07,-7.7,M,1.7,M,,*40
$GPRMC,210215.000,A,2654.9929,S,04904.3080,W,0.00,141.20,151115,,,A*6E
$GPGGA,210216.000,2654.9929,S,04904.3080,W,1,7,1.07,-7.7,M,1.7,M,,*43
$GPRMC,210216.000,A,2654.9929,S,04904.3080,W,0.00,141.20,151115,,,A*6D
$GPGGA,210217.000,2654.9929,S,04904.3080,W,1,7,1.07,-7.7,M,1.7,M,,*42
$GPRMC,210217.000,A,2654.9929,S,04904.3080,W,0.00,141.20,151115,,,A*6C
$GPGGA,210218.000,2654.9929,S,04904.3080,W,1,7,1.07,-7.6,M,1.7,M,,*4C
$GPRMC,210218.000,A,2654.9929,S,04904.3080,W,0.00,141.20,151115,,,A*63
$GPGGA,210219.000,2654.9929,S,04904.3080,W,1,7,1.24,-7.6,M,1.7,M,,*4C
$GPRMC,210219.000,A,2654.9929,S,04904.3080,W,0.00,141.20,151115,,,A*62
$GPGGA,210220.000,2654.9929,S,04904.3080,W,1,7,1.07,-7.6,M,1.7,M,,*47
$GPRMC,210220.000,A,2654.9929,S,04904.3080,W,0.00,141.20,151115,,,A*68
$GPGGA,210221.000,2654.9929,S,04904.3080,W,1,7,1.07,-7.6,M,1.7,M,,*46
$GPRMC,210221.000,A,2654.9929,S,04904.3080,W,0.02,141.20,151115,,,A*6B
$GPGGA,210222.000,2654.9929,S,04904.3080,W,1,7,1.07,-7.6,M,1.7,M,,*45
$GPRMC,210222.000,A,2654.9929,S,04904.3080,W,0.02,141.20,151115,,,A*68
$GPRMC,210253.000,A,2655.0624,S,04904.2391,W,27.65,138.16,151115,,,A*59
$GPGGA,210254.000,2655.0684,S,04904.2332,W,1,7,1.07,1.4,M,1.7,M,,*66
$GPRMC,210254.000,A,2655.0684,S,04904.2332,W,28.85,139.62,151115,,,A*5E
$GPGGA,210255.000,2655.0746,S,04904.2273,W,1,7,1.07,1.6,M,1.7,M,,*6E
$GPRMC,210255.000,A,2655.0746,S,04904.2273,W,28.29,139.89,151115,,,A*57
$GPGGA,210256.000,2655.0805,S,04904.2216,W,1,7,1.07,1.6,M,1.7,M,,*66
$GPRMC,210256.000,A,2655.0805,S,04904.2216,W,27.52,138.90,151115,,,A*55
$GPGGA,210257.000,2655.0861,S,04904.2159,W,1,7,1.07,1.6,M,1.7,M,,*6D
$GPRMC,210257.000,A,2655.0861,S,04904.2159,W,25.97,138.24,151115,,,A*5A
$GPGGA,210258.000,2655.0917,S,04904.2102,W,1,7,1.07,1.6,M,1.7,M,,*6C
$GPRMC,210258.000,A,2655.0917,S,04904.2102,W,25.27,138.23,151115,,,A*57
$GPGGA,210259.000,2655.0972,S,04904.2048,W,1,7,1.07,1.4,M,1.7,M,,*63
$GPRMC,210259.000,A,2655.0972,S,04904.2048,W,24.95,138.16,151115,,,A*54
$GPGGA,210300.000,2655.1028,S,04904.1994,W,1,7,1.23,1.2,M,1.7,M,,*62
$GPRMC,210300.000,A,2655.1028,S,04904.1994,W,25.12,138.24,151115,,,A*5A
$GPGGA,210301.000,2655.1088,S,04904.1941,W,1,7,1.24,1.2,M,1.7,M,,*66
$GPRMC,210301.000,A,2655.1088,S,04904.1941,W,25.32,140.53,151115,,,A*54
$GPGGA,210302.000,2655.1146,S,04904.1889,W,1,7,1.07,1.1,M,1.7,M,,*61
$GPRMC,210302.000,A,2655.1146,S,04904.1889,W,25.61,140.14,151115,,,A*54
$GPGGA,210333.000,2655.2366,S,04904.0648,W,1,7,1.07,2.4,M,1.7,M,,*64
$GPRMC,210333.000,A,2655.2366,S,04904.0648,W,39.99,130.38,151115,,,A*54
$GPGGA,210334.000,2655.2433,S,04904.0557,W,1,7,1.07,2.5,M,1.7,M,,*68
$GPRMC,210334.000,A,2655.2433,S,04904.0557,W,35.43,130.77,151115,,,A*59
$GPGGA,210335.000,2655.2491,S,04904.0481,W,1,7,1.23,1.8,M,1.7,M,,*63
$GPRMC,210335.000,A,2655.2491,S,04904.0481,W,28.00,130.73,151115,,,A*55
$GPGGA,210336.000,2655.2534,S,04904.0424,W,1,7,1.07,0.8,M,1.7,M,,*66
$GPRMC,210336.000,A,2655.2534,S,04904.0424,W,20.71,130.89,151115,,,A*5C
$GPGGA,210337.000,2655.2570,S,04904.0377,W,1,7,1.23,-0.5,M,1.7,M,,*40
$GPRMC,210337.000,A,2655.2570,S,04904.0377,W,18.94,131.13,151115,,,A*5E
$GPGGA,210338.000,2655.2608,S,04904.0330,W,1,7,1.23,-1.6,M,1.7,M,,*42
$GPRMC,210338.000,A,2655.2608,S,04904.0330,W,20.65,131.82,151115,,,A*53
$GPGGA,210339.000,2655.2651,S,04904.0278,W,1,7,1.23,-2.3,M,1.7,M,,*44
$GPRMC,210339.000,A,2655.2651,S,04904.0278,W,23.67,132.15,151115,,,A*5F
$GPGGA,210340.000,2655.2700,S,04904.0218,W,1,7,1.23,-2.5,M,1.7,M,,*4F
$GPRMC,210340.000,A,2655.2700,S,04904.0218,W,26.57,130.44,151115,,,A*52
$GPGGA,210341.000,2655.2749,S,04904.0152,W,1,7,1.23,-3.0,M,1.7,M,,*4A
$GPRMC,210341.000,A,2655.2749,S,04904.0152,W,28.59,130.09,151115,,,A*5A
$GPGGA,210342.000,2655.2801,S,04904.0082,W,1,7,1.07,-3.6,M,1.7,M,,*46
$GPRMC,210342.000,A,2655.2801,S,04904.0082,W,29.38,129.65,151115,,,A*52
$GPGGA,210413.000,2655.3671,S,04903.8349,W,1,7,1.23,-20.0,M,1.7,M,,*77
$GPRMC,210413.000,A,2655.3671,S,04903.8349,W,19.33,116.58,151115,,,A*58
$GPGGA,210414.000,2655.3695,S,04903.8296,W,1,6,1.37,-20.3,M,1.7,M,,*7E
$GPRMC,210414.000,A,2655.3695,S,04903.8296,W,19.80,116.63,151115,,,A*56
$GPGGA,210415.000,2655.3719,S,04903.8240,W,1,7,1.07,-20.4,M,1.7,M,,*74
$GPRMC,210415.000,A,2655.3719,S,04903.8240,W,19.77,116.19,151115,,,A*5C
$GPGGA,210416.000,2655.3742,S,04903.8185,W,1,7,1.07,-20.5,M,1.7,M,,*72
$GPRMC,210416.000,A,2655.3742,S,04903.8185,W,19.82,115.95,151115,,,A*56
$GPGGA,210417.000,2655.3766,S,04903.8129,W,1,7,1.07,-20.5,M,1.7,M,,*73
$GPRMC,210417.000,A,2655.3766,S,04903.8129,W,20.23,116.16,151115,,,A*5E
$GPGGA,210418.000,2655.3791,S,04903.8072,W,1,6,1.37,-20.5,M,1.7,M,,*79
$GPRMC,210418.000,A,2655.3791,S,04903.8072,W,20.24,116.84,151115,,,A*5A
$GPGGA,210419.000,2655.3817,S,04903.8017,W,1,6,1.37,-20.6,M,1.7,M,,*79
$GPRMC,210419.000,A,2655.3817,S,04903.8017,W,19.94,117.75,151115,,,A*57
$GPGGA,210420.000,2655.3841,S,04903.7963,W,1,7,1.07,-20.6,M,1.7,M,,*77
$GPRMC,210420.000,A,2655.3841,S,04903.7963,W,19.50,118.34,151115,,,A*59
$GPGGA,210421.000,2655.3865,S,04903.7909,W,1,7,1.07,-20.8,M,1.7,M,,*72
$GPRMC,210421.000,A,2655.3865,S,04903.7909,W,18.80,118.48,151115,,,A*55
$GPGGA,210422.000,2655.3886,S,04903.7858,W,1,7,1.07,-20.9,M,1.7,M,,*78
$GPRMC,210422.000,A,2655.3886,S,04903.7858,W,17.93,117.87,151115,,,A*5F
$GPGGA,210715.000,2655.3980,S,04903.3496,W,2,8,0.96,12.0,M,1.7,M,0000,0000*52
$GPRMC,210715.000,A,2655.3980,S,04903.3496,W,15.18,335.51,151115,,,D*58
$GPGGA,210716.000,2655.3948,S,04903.3528,W,2,8,0.96,12.2,M,1.7,M,0000,0000*53
$GPRMC,210716.000,A,2655.3948,S,04903.3528,W,15.99,313.71,151115,,,D*54
$GPGGA,210717.000,2655.3920,S,04903.3570,W,2,8,0.96,12.1,M,1.7,M,0000,0000*52
$GPRMC,210717.000,A,2655.3920,S,04903.3570,W,16.93,305.63,151115,,,D*5B
$GPGGA,210718.000,2655.3891,S,04903.3618,W,2,8,0.96,12.1,M,1.7,M,0000,0000*5B
$GPRMC,210718.000,A,2655.3891,S,04903.3618,W,19.05,305.62,151115,,,D*53
$GPGGA,210719.000,2655.3860,S,04903.3671,W,2,8,1.13,11.9,M,1.7,M,0000,0000*5C
$GPRMC,210719.000,A,2655.3860,S,04903.3671,W,20.41,306.12,151115,,,D*5D
$GPGGA,210720.000,2655.3824,S,04903.3725,W,2,8,0.96,11.9,M,1.7,M,0000,0000*5A
$GPRMC,210720.000,A,2655.3824,S,04903.3725,W,22.23,307.45,151115,,,D*52
$GPGGA,210721.000,2655.3786,S,04903.3782,W,2,8,1.13,12.1,M,1.7,M,0000,0000*56
$GPRMC,210721.000,A,2655.3786,S,04903.3782,W,23.03,307.69,151115,,,D*54
$GPGGA,210722.000,2655.3748,S,04903.3839,W,2,8,1.13,12.2,M,1.7,M,0000,0000*5B
$GPRMC,210722.000,A,2655.3748,S,04903.3839,W,23.49,307.61,151115,,,D*5C
$GPGGA,210723.000,2655.3709,S,04903.3897,W,2,8,0.96,12.3,M,1.7,M,0000,0000*56
$GPRMC,210723.000,A,2655.3709,S,04903.3897,W,23.44,307.43,151115,,,D*51
$GPGGA,210724.000,2655.3669,S,04903.3956,W,2,8,1.13,12.4,M,1.7,M,0000,0000*51
$GPGGA,210755.000,2655.3216,S,04903.4590,W,2,8,0.96,13.5,M,1.7,M,0000,0000*56
$GPRMC,210755.000,A,2655.3216,S,04903.4590,W,0.05,312.73,151115,,,D*65
$GPGGA,210756.000,2655.3215,S,04903.4591,W,2,8,0.96,13.5,M,1.7,M,0000,0000*57
$GPRMC,210756.000,A,2655.3215,S,04903.4591,W,0.04,312.73,151115,,,D*65
$GPGGA,210757.000,2655.3215,S,04903.4592,W,2,8,0.96,13.5,M,1.7,M,0000,0000*55
$GPRMC,210757.000,A,2655.3215,S,04903.4592,W,0.03,312.73,151115,,,D*60
$GPGGA,210758.000,2655.3214,S,04903.4593,W,2,8,0.96,13.5,M,1.7,M,0000,0000*5A
$GPRMC,210758.000,A,2655.3214,S,04903.4593,W,0.04,312.73,151115,,,D*68
$GPGGA,210759.000,2655.3214,S,04903.4594,W,2,8,0.96,13.5,M,1.7,M,0000,0000*5C
$GPRMC,210759.000,A,2655.3214,S,04903.4594,W,0.04,312.73,151115,,,D*6E
$GPGGA,210800.000,2655.3213,S,04903.4595,W,2,8,0.96,13.5,M,1.7,M,0000,0000*59
$GPRMC,210800.000,A,2655.3213,S,04903.4595,W,0.04,312.73,151115,,,D*6B
$GPGGA,210801.000,2655.3212,S,04903.4596,W,2,8,0.96,13.5,M,1.7,M,0000,0000*5A
$GPRMC,210801.000,A,2655.3212,S,04903.4596,W,0.03,312.73,151115,,,D*6F
$GPGGA,210802.000,2655.3211,S,04903.4596,W,2,8,0.96,13.5,M,1.7,M,0000,0000*5A
$GPRMC,210802.000,A,2655.3211,S,04903.4596,W,0.04,312.73,151115,,,D*68
$GPGGA,210803.000,2655.3211,S,04903.4597,W,2,7,1.08,13.5,M,1.7,M,0000,0000*53
$GPRMC,210803.000,A,2655.3211,S,04903.4597,W,0.04,312.73,151115,,,D*68
$GPGGA,210804.000,2655.3210,S,04903.4599,W,2,8,0.96,13.5,M,1.7,M,0000,0000*52
$GPRMC,211055.000,A,2654.9556,S,04904.0790,W,19.42,334.47,151115,,,D*52
$GPGGA,211056.000,2654.9509,S,04904.0810,W,2,8,1.11,22.7,M,1.7,M,0000,0000*59
$GPRMC,211056.000,A,2654.9509,S,04904.0810,W,17.29,336.56,151115,,,D*5D
$GPGGA,211057.000,2654.9463,S,04904.0829,W,2,8,1.11,22.6,M,1.7,M,0000,0000*5E
$GPRMC,211057.000,A,2654.9463,S,04904.0829,W,16.69,338.65,151115,,,D*50
$GPGGA,211058.000,2654.9413,S,04904.0844,W,2,8,1.11,22.6,M,1.7,M,0000,0000*5D
$GPRMC,211058.000,A,2654.9413,S,04904.0844,W,17.56,340.34,151115,,,D*55
$GPGGA,211059.000,2654.9366,S,04904.0860,W,2,8,1.11,23.2,M,1.7,M,0000,0000*5A
$GPRMC,211059.000,A,2654.9366,S,04904.0860,W,17.48,341.25,151115,,,D*59
$GPGGA,211100.000,2654.9319,S,04904.0873,W,2,7,1.20,23.3,M,1.7,M,0000,0000*51
$GPRMC,211100.000,A,2654.9319,S,04904.0873,W,17.15,342.99,151115,,,D*52
$GPGGA,211101.000,2654.9274,S,04904.0884,W,2,7,1.20,23.5,M,1.7,M,0000,0000*54
$GPRMC,211101.000,A,2654.9274,S,04904.0884,W,16.78,344.31,151115,,,D*5F
$GPGGA,211102.000,2654.9230,S,04904.0894,W,2,7,1.20,23.2,M,1.7,M,0000,0000*51
$GPRMC,211102.000,A,2654.9230,S,04904.0894,W,16.55,344.50,151115,,,D*55
$GPGGA,211103.000,2654.9184,S,04904.0908,W,2,8,1.11,23.1,M,1.7,M,0000,0000*56
$GPRMC,211103.000,A,2654.9184,S,04904.0908,W,17.47,343.86,151115,,,D*52
$GPGGA,211104.000,2654.9136,S,04904.0926,W,2,8,1.11,22.9,M,1.7,M,0000,0000*5D
$GPRMC,211104.000,A,2654.9136,S,04904.0926,W,18.75,342.29,151115,,,D*5A
$GPGGA,211105.000,2654.9086,S,04904.0946,W,2,8,1.11,22.7,M,1.7,M,0000,0000*5E
$GPGGA,211136.000,2654.8515,S,04904.1129,W,2,7,1.20,22.9,M,1.7,M,0000,0000*53
$GPRMC,211136.000,A,2654.8515,S,04904.1129,W,19.14,349.42,151115,,,D*59
$GPGGA,211137.000,2654.8458,S,04904.1142,W,2,7,1.20,22.8,M,1.7,M,0000,0000*56
$GPRMC,211137.000,A,2654.8458,S,04904.1142,W,20.81,349.58,151115,,,D*50
$GPGGA,211138.000,2654.8396,S,04904.1156,W,2,7,1.20,22.6,M,1.7,M,0000,0000*57
$GPRMC,211138.000,A,2654.8396,S,04904.1156,W,23.13,349.59,151115,,,D*56
$GPGGA,211139.000,2654.8330,S,04904.1172,W,2,7,1.20,22.3,M,1.7,M,0000,0000*59
$GPGGA,211343.000,2654.8008,S,04904.6957,W,1,8,1.09,3.6,M,1.7,M,,*67
$GPRMC,211343.000,A,2654.8008,S,04904.6957,W,29.75,292.75,151115,,,A*54
$GPGGA,211344.000,2654.7975,S,04904.7040,W,1,8,1.09,3.9,M,1.7,M,,*6D
$GPRMC,211344.000,A,2654.7975,S,04904.7040,W,28.91,293.88,151115,,,A*59
$GPGGA,211345.000,2654.7941,S,04904.7122,W,1,8,1.09,3.7,M,1.7,M,,*60
$GPRMC,211345.000,A,2654.7941,S,04904.7122,W,28.13,294.93,151115,,,A*5D
$GPGGA,211346.000,2654.7908,S,04904.7201,W,1,8,1.09,3.6,M,1.7,M,,*6D
$GPRMC,211346.000,A,2654.7908,S,04904.7201,W,27.21,295.33,151115,,,A*54
$GPGGA,211347.000,2654.7876,S,04904.7277,W,1,8,1.09,3.3,M,1.7,M,,*60
$GPRMC,211347.000,A,2654.7876,S,04904.7277,W,26.07,295.43,151115,,,A*5E
$GPGGA,211348.000,2654.7844,S,04904.7351,W,1,8,0.96,3.2,M,1.7,M,,*6D
$GPRMC,211348.000,A,2654.7844,S,04904.7351,W,25.34,296.30,151115,,,A*51
$GPGGA,211349.000,2654.7813,S,04904.7422,W,1,7,1.19,2.8,M,1.7,M,,*6F
$GPRMC,211349.000,A,2654.7813,S,04904.7422,W,24.55,296.48,151115,,,A*58
$GPGGA,211350.000,2654.7782,S,04904.7491,W,1,8,1.09,2.6,M,1.7,M,,*68
$GPRMC,211350.000,A,2654.7782,S,04904.7491,W,24.55,296.64,151115,,,A*51
$GPGGA,211351.000,2654.7749,S,04904.7560,W,1,8,1.09,2.4,M,1.7,M,,*63
$GPRMC,211351.000,A,2654.7749,S,04904.7560,W,25.68,298.17,151115,,,A*5D
$GPGGA,211352.000,2654.7712,S,04904.7630,W,1,8,1.09,2.6,M,1.7,M,,*6A
$GPRMC,211352.000,A,2654.7712,S,04904.7630,W,24.74,300.41,151115,,,A*59
$GPGGA,211423.000,2654.6145,S,04904.9203,W,2,8,1.09,12.2,M,1.7,M,0000,0000*52
$GPRMC,211423.000,A,2654.6145,S,04904.9203,W,20.59,318.35,151115,,,D*53
$GPGGA,211424.000,2654.6106,S,04904.9246,W,2,8,1.09,12.6,M,1.7,M,0000,0000*57
$GPRMC,211424.000,A,2654.6106,S,04904.9246,W,19.87,316.90,151115,,,D*5A
$GPGGA,211425.000,2654.6068,S,04904.9285,W,2,8,1.09,13.0,M,1.7,M,0000,0000*57
$GPRMC,211425.000,A,2654.6068,S,04904.9285,W,17.83,315.78,151115,,,D*52
$GPGGA,211426.000,2654.6033,S,04904.9316,W,2,8,1.09,12.9,M,1.7,M,0000,0000*59
$GPRMC,211426.000,A,2654.6033,S,04904.9316,W,14.69,323.36,151115,,,D*5C
$GPGGA,211427.000,2654.5998,S,04904.9337,W,2,8,1.09,12.4,M,1.7,M,0000,0000*5D
$GPRMC,211427.000,A,2654.5998,S,04904.9337,W,14.13,333.43,151115,,,D*5B
$GPGGA,211428.000,2654.5958,S,04904.9342,W,2,8,1.09,14.9,M,1.7,M,0000,0000*57
$GPRMC,211428.000,A,2654.5958,S,04904.9342,W,14.11,357.06,151115,,,D*5B
$GPGGA,211429.000,2654.5918,S,04904.9330,W,2,8,1.09,15.8,M,1.7,M,0000,0000*57
$GPRMC,211429.000,A,2654.5918,S,04904.9330,W,14.45,24.99,151115,,,D*6B
$GPGGA,211430.000,2654.5880,S,04904.9307,W,2,8,0.96,16.3,M,1.7,M,0000,0000*54
$GPRMC,211430.000,A,2654.5880,S,04904.9307,W,14.27,31.95,151115,,,D*6B
$GPGGA,211431.000,2654.5848,S,04904.9269,W,2,8,0.96,16.6,M,1.7,M,0000,0000*5D
$GPRMC,211431.000,A,2654.5848,S,04904.9269,W,17.90,49.80,151115,,,D*63
$GPGGA,211432.000,2654.5814,S,04904.9218,W,2,8,1.09,17.3,M,1.7,M,0000,0000*52
$GPRMC,211432.000,A,2654.5814,S,04904.9218,W,20.28,51.51,151115,,,D*6D
$GPGGA,211503.000,2654.4580,S,04904.9839,W,2,8,1.09,20.2,M,1.7,M,0000,0000*5C
$GPRMC,211503.000,A,2654.4580,S,04904.9839,W,20.35,319.01,151115,,,D*50
$GPGGA,211504.000,2654.4537,S,04904.9883,W,2,8,1.09,20.2,M,1.7,M,0000,0000*56
$GPRMC,211504.000,A,2654.4537,S,04904.9883,W,21.54,318.96,151115,,,D*53
$GPGGA,211505.000,2654.4490,S,04904.9931,W,2,8,1.09,20.1,M,1.7,M,0000,0000*50
$GPRMC,211505.000,A,2654.4490,S,04904.9931,W,24.10,318.52,151115,,,D*5B
$GPGGA,211506.000,2654.4438,S,04904.9987,W,2,8,1.09,20.4,M,1.7,M,0000,0000*59
$GPRMC,211506.000,A,2654.4438,S,04904.9987,W,26.73,317.26,151115,,,D*5C
$GPGGA,211507.000,2654.4383,S,04905.0046,W,2,8,1.09,20.5,M,1.7,M,0000,0000*52
$GPRMC,211507.000,A,2654.4383,S,04905.0046,W,27.61,318.29,151115,,,D*54
$GPGGA,211508.000,2654.4324,S,04905.0106,W,2,8,1.09,20.8,M,1.7,M,0000,0000*58
$GPRMC,211508.000,A,2654.4324,S,04905.0106,W,28.60,319.59,151115,,,D*5B
$GPGGA,211509.000,2654.4262,S,04905.0167,W,2,8,1.09,21.4,M,1.7,M,0000,0000*50
$GPRMC,211509.000,A,2654.4262,S,04905.0167,W,29.85,318.47,151115,,,D*5A
$GPGGA,211510.000,2654.4199,S,04905.0230,W,2,8,1.09,21.6,M,1.7,M,0000,0000*5C
$GPRMC,211510.000,A,2654.4199,S,04905.0230,W,29.82,318.13,151115,,,D*52
$GPGGA,211511.000,2654.4137,S,04905.0291,W,2,8,1.09,21.8,M,1.7,M,0000,0000*5C
$GPRMC,211511.000,A,2654.4137,S,04905.0291,W,30.51,318.34,151115,,,D*5F
$GPGGA,211512.000,2654.4077,S,04905.0352,W,2,8,1.08,22.1,M,1.7,M,0000,0000*5F
$GPRMC,211512.000,A,2654.4077,S,04905.0352,W,28.35,318.58,151115,,,D*56
$GPGGA,211543.000,2654.2452,S,04905.1989,W,2,8,0.96,40.2,M,1.7,M,0000,0000*52
$GPRMC,211543.000,A,2654.2452,S,04905.1989,W,24.23,318.39,151115,,,D*56
$GPGGA,211544.000,2654.2397,S,04905.2033,W,2,8,0.96,40.3,M,1.7,M,0000,0000*51
$GPRMC,211544.000,A,2654.2397,S,04905.2033,W,24.59,319.36,151115,,,D*57
$GPGGA,211545.000,2654.2342,S,04905.2079,W,2,8,0.96,40.2,M,1.7,M,0000,0000*57
$GPRMC,211545.000,A,2654.2342,S,04905.2079,W,24.39,319.63,151115,,,D*56
$GPGGA,211546.000,2654.2288,S,04905.2125,W,2,8,0.96,40.1,M,1.7,M,0000,0000*58
$GPRMC,211546.000,A,2654.2288,S,04905.2125,W,24.63,320.56,151115,,,D*59
$GPGGA,211547.000,2654.2235,S,04905.2172,W,2,8,0.96,39.9,M,1.7,M,0000,0000*5B
$GPRMC,211547.000,A,2654.2235,S,04905.2172,W,24.21,321.46,151115,,,D*5A
$GPGGA,211548.000,2654.2182,S,04905.2218,W,2,8,0.96,39.7,M,1.7,M,0000,0000*5A
$GPRMC,211548.000,A,2654.2182,S,04905.2218,W,24.27,322.32,151115,,,D*53
$GPGGA,211549.000,2654.2129,S,04905.2263,W,2,8,0.96,39.3,M,1.7,M,0000,0000*52
$GPRMC,211549.000,A,2654.2129,S,04905.2263,W,23.94,322.59,151115,,,D*5D
$GPGGA,211550.000,2654.2075,S,04905.2306,W,2,8,0.96,39.1,M,1.7,M,0000,0000*52
$GPRMC,211550.000,A,2654.2075,S,04905.2306,W,23.89,323.71,151115,,,D*58
$GPGGA,211551.000,2654.2022,S,04905.2348,W,2,8,0.96,38.8,M,1.7,M,0000,0000*53
$GPRMC,211551.000,A,2654.2022,S,04905.2348,W,23.51,323.96,151115,,,D*5D
$GPGGA,211552.000,2654.1970,S,04905.2391,W,2,8,0.96,38.5,M,1.7,M,0000,0000*54
$GPRMC,211552.000,A,2654.1970,S,04905.2391,W,23.57,323.51,151115,,,D*5A
$GPGGA,211623.000,2654.1158,S,04905.3111,W,2,8,0.96,34.4,M,1.7,M,0000,0000*55
$GPRMC,211623.000,A,2654.1158,S,04905.3111,W,0.03,327.99,151115,,,D*66
$GPGGA,211624.000,2654.1158,S,04905.3110,W,2,8,0.96,34.4,M,1.7,M,0000,0000*53
$GPRMC,211624.000,A,2654.1158,S,04905.3110,W,0.01,327.99,151115,,,D*62
$GPGGA,211625.000,2654.1158,S,04905.3110,W,2,8,0.96,34.5,M,1.7,M,0000,0000*53
$GPRMC,211625.000,A,2654.1158,S,04905.3110,W,0.03,327.99,151115,,,D*61
$GPGGA,211626.000,2654.1158,S,04905.3110,W,2,8,0.96,34.5,M,1.7,M,0000,0000*50
$GPRMC,211626.000,A,2654.1158,S,04905.3110,W,1.13,327.99,151115,,,D*62
$GPGGA,211627.000,2654.1155,S,04905.3111,W,2,8,0.96,34.5,M,1.7,M,0000,0000*5D
$GPRMC,211627.000,A,2654.1155,S,04905.3111,W,3.25,329.27,151115,,,D*63
$GPGGA,211628.000,2654.1140,S,04905.3121,W,2,8,0.96,34.3,M,1.7,M,0000,0000*53
$GPRMC,211628.000,A,2654.1140,S,04905.3121,W,8.56,323.68,151115,,,D*65
$GPGGA,211629.000,2654.1119,S,04905.3139,W,2,8,1.08,34.2,M,1.7,M,0000,0000*50
$GPRMC,211629.000,A,2654.1119,S,04905.3139,W,10.06,324.92,151115,,,D*5F
$GPGGA,211630.000,2654.1096,S,04905.3163,W,2,8,1.08,34.0,M,1.7,M,0000,0000*53
$GPRMC,211630.000,A,2654.1096,S,04905.3163,W,10.96,326.17,151115,,,D*58
$GPGGA,211631.000,2654.1070,S,04905.3185,W,2,8,1.08,33.9,M,1.7,M,0000,0000*5C
$GPRMC,211631.000,A,2654.1070,S,04905.3185,W,12.38,327.55,151115,,,D*58
$GPGGA,211632.000,2654.1039,S,04905.3201,W,2,8,1.08,33.9,M,1.7,M,0000,0000*5D
$GPRMC,211632.000,A,2654.1039,S,04905.3201,W,11.60,341.23,151115,,,D*56
$GPGGA,211703.000,2653.9500,S,04905.2627,W,2,7,1.18,37.6,M,1.7,M,0000,0000*5A
$GPRMC,211703.000,A,2653.9500,S,04905.2627,W,25.41,22.00,151115,,,D*67
$GPGGA,211704.000,2653.9431,S,04905.2595,W,2,7,1.18,36.9,M,1.7,M,0000,0000*5A
$GPRMC,211704.000,A,2653.9431,S,04905.2595,W,27.93,22.23,151115,,,D*65
$GPGGA,211705.000,2653.9354,S,04905.2562,W,2,8,1.07,36.3,M,1.7,M,0000,0000*5C
$GPRMC,211705.000,A,2653.9354,S,04905.2562,W,30.01,22.47,151115,,,D*67
$GPGGA,211706.000,2653.9272,S,04905.2524,W,2,8,1.08,35.9,M,1.7,M,0000,0000*5E
$GPRMC,211706.000,A,2653.9272,S,04905.2524,W,32.36,22.51,151115,,,D*62
$GPGGA,211707.000,2653.9186,S,04905.2484,W,2,8,0.96,35.6,M,1.7,M,0000,0000*55
$GPRMC,211707.000,A,2653.9186,S,04905.2484,W,34.59,22.98,151115,,,D*6A
$GPGGA,211708.000,2653.9095,S,04905.2444,W,2,8,1.07,35.3,M,1.7,M,0000,0000*59
$GPRMC,211708.000,A,2653.9095,S,04905.2444,W,35.38,20.06,151115,,,D*69
$GPGGA,211709.000,2653.9001,S,04905.2413,W,2,8,0.96,35.2,M,1.7,M,0000,0000*5F
$GPRMC,211709.000,A,2653.9001,S,04905.2413,W,34.94,14.50,151115,,,D*64
$GPGGA,211710.000,2653.8912,S,04905.2391,W,2,8,1.07,34.0,M,1.7,M,0000,0000*5A
$GPRMC,211710.000,A,2653.8912,S,04905.2391,W,33.00,9.93,151115,,,D*52
$GPGGA,211711.000,2653.8824,S,04905.2374,W,2,8,1.07,33.2,M,1.7,M,0000,0000*51
$GPRMC,211711.000,A,2653.8824,S,04905.2374,W,31.16,7.00,151115,,,D*5D
$GPGGA,211712.000,2653.8741,S,04905.2364,W,2,8,1.07,32.0,M,1.7,M,0000,0000*5C
$GPRMC,211712.000,A,2653.8741,S,04905.2364,W,29.51,5.25,151115,,,D*5C
$GPGGA,211743.000,2653.7422,S,04905.2961,W,2,8,1.07,26.9,M,1.7,M,0000,0000*52
$GPGGA,212014.000,2653.2091,S,04905.8116,W,2,7,1.17,27.6,M,1.7,M,0000,0000*5F
$GPRMC,212014.000,A,2653.2091,S,04905.8116,W,18.35,254.34,151115,,,D*55
$GPGGA,212015.000,2653.2105,S,04905.8173,W,2,7,1.17,27.7,M,1.7,M,0000,0000*50
$GPRMC,212015.000,A,2653.2105,S,04905.8173,W,19.18,254.22,151115,,,D*52
$GPGGA,212016.000,2653.2119,S,04905.8230,W,2,7,1.17,27.7,M,1.7,M,0000,0000*5A
$GPRMC,212016.000,A,2653.2119,S,04905.8230,W,19.11,254.53,151115,,,D*57
$GPGGA,212017.000,2653.2132,S,04905.8289,W,2,7,1.17,27.7,M,1.7,M,0000,0000*50
$GPRMC,212017.000,A,2653.2132,S,04905.8289,W,19.17,255.02,151115,,,D*5E
$GPGGA,212018.000,2653.2143,S,04905.8347,W,2,6,1.23,27.8,M,1.7,M,0000,0000*53
$GPRMC,212018.000,A,2653.2143,S,04905.8347,W,19.19,255.75,151115,,,D*5A
$GPGGA,212019.000,2653.2154,S,04905.8407,W,2,6,1.23,28.0,M,1.7,M,0000,0000*50
$GPRMC,212019.000,A,2653.2154,S,04905.8407,W,19.84,256.86,151115,,,D*55
$GPGGA,212020.000,2653.2164,S,04905.8466,W,2,7,1.17,28.0,M,1.7,M,0000,0000*58
$GPRMC,212020.000,A,2653.2164,S,04905.8466,W,19.00,258.47,151115,,,D*54
$GPGGA,212021.000,2653.2171,S,04905.8524,W,2,8,1.06,28.2,M,1.7,M,0000,0000*57
$GPRMC,212021.000,A,2653.2171,S,04905.8524,W,18.61,260.49,151115,,,D*55
$GPGGA,212022.000,2653.2176,S,04905.8580,W,2,8,1.06,28.4,M,1.7,M,0000,0000*5B
$GPRMC,212022.000,A,2653.2176,S,04905.8580,W,17.73,261.58,151115,,,D*52
$GPGGA,212023.000,2653.2179,S,04905.8633,W,2,8,0.96,28.7,M,1.7,M,0000,0000*55
$GPRMC,212023.000,A,2653.2179,S,04905.8633,W,16.67,263.48,151115,,,D*50
$GPGGA,212054.000,2653.1543,S,04906.0143,W,2,7,1.09,36.0,M,1.7,M,0000,0000*50
$GPRMC,212054.000,A,2653.1543,S,04906.0143,W,27.49,23.05,151115,,,D*64
$GPGGA,212055.000,2653.1473,S,04906.0107,W,2,7,1.09,37.1,M,1.7,M,0000,0000*53
$GPRMC,212055.000,A,2653.1473,S,04906.0107,W,26.11,23.93,151115,,,D*64
$GPGGA,212056.000,2653.1409,S,04906.0074,W,2,7,1.09,37.9,M,1.7,M,0000,0000*50
$GPRMC,212056.000,A,2653.1409,S,04906.0074,W,24.11,23.64,151115,,,D*65
$GPGGA,212057.000,2653.1347,S,04906.0044,W,2,8,0.96,38.3,M,1.7,M,0000,0000*52
$GPRMC,212057.000,A,2653.1347,S,04906.0044,W,23.30,21.64,151115,,,D*6C
$GPGGA,212058.000,2653.1286,S,04906.0020,W,2,8,0.96,38.9,M,1.7,M,0000,0000*59
$GPRMC,212058.000,A,2653.1286,S,04906.0020,W,22.90,18.86,151115,,,D*60
$GPGGA,212059.000,2653.1228,S,04905.9994,W,2,7,1.09,39.3,M,1.7,M,0000,0000*53
$GPRMC,212059.000,A,2653.1228,S,04905.9994,W,22.17,21.20,151115,,,D*60
$GPGGA,212100.000,2653.1171,S,04905.9967,W,2,7,1.09,39.7,M,1.7,M,0000,0000*59
$GPRMC,212100.000,A,2653.1171,S,04905.9967,W,21.91,22.52,151115,,,D*65
$GPGGA,212101.000,2653.1114,S,04905.9939,W,2,7,1.09,40.0,M,1.7,M,0000,0000*59
$GPRMC,212101.000,A,2653.1114,S,04905.9939,W,22.53,21.83,151115,,,D*6E
$GPGGA,212102.000,2653.1054,S,04905.9911,W,2,7,1.09,40.4,M,1.7,M,0000,0000*51
$GPRMC,212102.000,A,2653.1054,S,04905.9911,W,23.07,22.35,151115,,,D*6C
$GPGGA,212103.000,2653.0994,S,04905.9885,W,2,7,1.09,40.7,M,1.7,M,0000,0000*5B
$GPRMC,212103.000,A,2653.0994,S,04905.9885,W,23.00,22.24,151115,,,D*62
$GPGGA,212134.000,2652.9995,S,04906.1189,W,2,8,0.96,34.3,M,1.7,M,0000,0000*57
$GPRMC,212134.000,A,2652.9995,S,04906.1189,W,21.62,347.72,151115,,,D*54
$GPGGA,212135.000,2652.9934,S,04906.1202,W,2,8,1.05,35.0,M,1.7,M,0000,0000*54
$GPRMC,212135.000,A,2652.9934,S,04906.1202,W,22.34,348.74,151115,,,D*57
$GPGGA,212136.000,2652.9870,S,04906.1215,W,2,8,1.05,35.4,M,1.7,M,0000,0000*54
$GPRMC,212136.000,A,2652.9870,S,04906.1215,W,23.35,348.87,151115,,,D*5F
$GPGGA,212137.000,2652.9804,S,04906.1228,W,2,8,1.05,35.8,M,1.7,M,0000,0000*54
$GPRMC,212137.000,A,2652.9804,S,04906.1228,W,24.22,349.11,151115,,,D*5C
$GPGGA,212138.000,2652.9734,S,04906.1240,W,2,8,1.05,35.9,M,1.7,M,0000,0000*58
$GPRMC,212138.000,A,2652.9734,S,04906.1240,W,24.95,349.02,151115,,,D*5F
$GPGGA,212139.000,2652.9665,S,04906.1255,W,2,8,1.05,36.2,M,1.7,M,0000,0000*50
$GPRMC,212139.000,A,2652.9665,S,04906.1255,W,24.72,348.01,151115,,,D*54
$GPGGA,212140.000,2652.9598,S,04906.1273,W,2,8,1.05,36.3,M,1.7,M,0000,0000*5A
$GPRMC,212140.000,A,2652.9598,S,04906.1273,W,23.63,345.90,151115,,,D*5D
$GPGGA,212141.000,2652.9537,S,04906.1294,W,2,8,0.96,36.4,M,1.7,M,0000,0000*5B
$GPRMC,212141.000,A,2652.9537,S,04906.1294,W,22.26,343.43,151115,,,D*58
$GPGGA,212142.000,2652.9480,S,04906.1316,W,2,8,0.96,36.4,M,1.7,M,0000,0000*5E
$GPRMC,212142.000,A,2652.9480,S,04906.1316,W,20.93,340.27,151115,,,D*50
$GPGGA,212143.000,2652.9427,S,04906.1335,W,2,8,0.96,36.5,M,1.7,M,0000,0000*52
$GPRMC,212143.000,A,2652.9427,S,04906.1335,W,19.53,339.85,151115,,,D*5D
$GPGGA,212214.000,2652.7576,S,04906.0612,W,2,8,0.96,33.9,M,1.7,M,0000,0000*50
$GPRMC,212214.000,A,2652.7576,S,04906.0612,W,22.90,15.84,151115,,,D*6D
$GPGGA,212215.000,2652.7513,S,04906.0591,W,2,8,0.96,33.4,M,1.7,M,0000,0000*57
$GPRMC,212215.000,A,2652.7513,S,04906.0591,W,22.86,16.57,151115,,,D*6D
$GPGGA,212216.000,2652.7454,S,04906.0571,W,2,7,1.16,32.7,M,1.7,M,0000,0000*5C
$GPRMC,212216.000,A,2652.7454,S,04906.0571,W,22.68,8.90,151115,,,D*56
$GPGGA,212217.000,2652.7390,S,04906.0569,W,2,8,1.05,32.1,M,1.7,M,0000,0000*50
$GPRMC,212217.000,A,2652.7390,S,04906.0569,W,23.79,354.16,151115,,,D*54
$GPGGA,212218.000,2652.7325,S,04906.0588,W,2,8,1.05,31.8,M,1.7,M,0000,0000*54
$GPRMC,212218.000,A,2652.7325,S,04906.0588,W,23.71,341.88,151115,,,D*51
$GPGGA,212219.000,2652.7264,S,04906.0616,W,2,8,0.96,31.3,M,1.7,M,0000,0000*55
$GPRMC,212219.000,A,2652.7264,S,04906.0616,W,24.58,336.53,151115,,,D*5A
$GPGGA,212220.000,2652.7202,S,04906.0651,W,2,8,0.96,30.6,M,1.7,M,0000,0000*58
$GPRMC,212220.000,A,2652.7202,S,04906.0651,W,25.65,333.04,151115,,,D*5B
$GPGGA,212221.000,2652.7138,S,04906.0691,W,2,8,0.96,30.1,M,1.7,M,0000,0000*58
$GPRMC,212221.000,A,2652.7138,S,04906.0691,W,26.39,331.50,151115,,,D*55
$GPGGA,212222.000,2652.7072,S,04906.0733,W,2,8,0.96,30.0,M,1.7,M,0000,0000*5C
$GPRMC,212222.000,A,2652.7072,S,04906.0733,W,26.44,332.58,151115,,,D*51
$GPGGA,212223.000,2652.7006,S,04906.0777,W,2,8,0.96,30.0,M,1.7,M,0000,0000*5E
$GPRMC,212223.000,A,2652.7006,S,04906.0777,W,26.75,332.93,151115,,,D*56
$GPGGA,212254.000,2652.5596,S,04905.9550,W,1,7,1.16,21.6,M,1.7,M,,*5E
$GPRMC,212254.000,A,2652.5596,S,04905.9550,W,27.99,63.76,151115,,,A*6F
$GPGGA,212255.000,2652.5562,S,04905.9471,W,1,8,1.05,21.4,M,1.7,M,,*59
$GPRMC,212255.000,A,2652.5562,S,04905.9471,W,27.98,63.93,151115,,,A*6D
$GPGGA,212256.000,2652.5529,S,04905.9392,W,1,8,0.96,20.9,M,1.7,M,,*58
$GPRMC,212256.000,A,2652.5529,S,04905.9392,W,28.14,64.63,151115,,,A*68
$GPGGA,212257.000,2652.5496,S,04905.9313,W,1,8,0.96,20.9,M,1.7,M,,*55
$GPRMC,212257.000,A,2652.5496,S,04905.9313,W,27.91,64.67,151115,,,A*63
$GPGGA,212258.000,2652.5463,S,04905.9233,W,1,8,0.96,20.7,M,1.7,M,,*5D
$GPRMC,212258.000,A,2652.5463,S,04905.9233,W,28.14,64.98,151115,,,A*67
$GPGGA,212259.000,2652.5430,S,04905.9153,W,1,8,1.05,20.5,M,1.7,M,,*56
$GPRMC,212259.000,A,2652.5430,S,04905.9153,W,28.17,64.69,151115,,,A*68
$GPGGA,212300.000,2652.5397,S,04905.9074,W,1,8,1.04,20.7,M,1.7,M,,*56
$GPRMC,212300.000,A,2652.5397,S,04905.9074,W,27.60,64.56,151115,,,A*68
$GPGGA,212301.000,2652.5365,S,04905.8999,W,1,8,1.04,20.7,M,1.7,M,,*51
$GPRMC,212301.000,A,2652.5365,S,04905.8999,W,26.44,62.87,151115,,,A*62
$GPGGA,212302.000,2652.5330,S,04905.8929,W,1,8,1.04,20.8,M,1.7,M,,*56
$GPRMC,212302.000,A,2652.5330,S,04905.8929,W,25.27,58.79,151115,,,A*64
$GPGGA,212303.000,2652.5290,S,04905.8865,W,1,8,1.04,20.9,M,1.7,M,,*54
$GPRMC,212303.000,A,2652.5290,S,04905.8865,W,24.74,52.34,151115,,,A*63
$GPGGA,212334.000,2652.3358,S,04905.7515,W,1,9,0.90,20.0,M,1.7,M,,*52
$GPRMC,212334.000,A,2652.3358,S,04905.7515,W,21.01,30.21,151115,,,A*66
$GPGGA,212335.000,2652.3309,S,04905.7481,W,1,9,0.90,19.9,M,1.7,M,,*58
$GPRMC,212335.000,A,2652.3309,S,04905.7481,W,22.27,36.41,151115,,,A*68
$GPGGA,212336.000,2652.3261,S,04905.7438,W,1,9,0.90,19.7,M,1.7,M,,*58
$GPRMC,212336.000,A,2652.3261,S,04905.7438,W,22.80,39.45,151115,,,A*60
$GPGGA,212337.000,2652.3217,S,04905.7389,W,1,9,0.90,21.0,M,1.7,M,,*59
$GPRMC,212337.000,A,2652.3217,S,04905.7389,W,22.19,48.90,151115,,,A*63
$GPGGA,212338.000,2652.3179,S,04905.7338,W,1,9,0.90,22.0,M,1.7,M,,*54
$GPRMC,212338.000,A,2652.3179,S,04905.7338,W,21.47,52.97,151115,,,A*69
$GPGGA,212339.000,2652.3146,S,04905.7287,W,1,9,0.90,22.8,M,1.7,M,,*54
$GPRMC,212339.000,A,2652.3146,S,04905.7287,W,20.17,54.83,151115,,,A*66
$GPGGA,212340.000,2652.3116,S,04905.7237,W,1,9,0.90,23.8,M,1.7,M,,*55
$GPRMC,212340.000,A,2652.3116,S,04905.7237,W,18.79,56.02,151115,,,A*6E
$GPGGA,212341.000,2652.3089,S,04905.7190,W,1,9,0.90,24.6,M,1.7,M,,*54
$GPRMC,212341.000,A,2652.3089,S,04905.7190,W,17.23,57.64,151115,,,A*67
$GPGGA,212342.000,2652.3066,S,04905.7143,W,1,9,0.90,25.3,M,1.7,M,,*5C
$GPRMC,212342.000,A,2652.3066,S,04905.7143,W,16.69,60.87,151115,,,A*6D
$GPGGA,212343.000,2652.3049,S,04905.7086,W,1,9,0.90,25.4,M,1.7,M,,*5F
$GPRMC,212343.000,A,2652.3049,S,04905.7086,W,17.44,64.34,151115,,,A*6B
$GPGGA,212414.000,2652.2846,S,04905.4724,W,1,9,0.85,24.6,M,1.7,M,,*57
$GPRMC,212414.000,A,2652.2846,S,04905.4724,W,26.70,130.56,151115,,,A*55
$GPGGA,212415.000,2652.2896,S,04905.4663,W,1,9,0.85,24.2,M,1.7,M,,*5D
$GPRMC,212415.000,A,2652.2896,S,04905.4663,W,26.23,132.74,151115,,,A*5F
$GPGGA,212416.000,2652.2947,S,04905.4600,W,1,9,0.85,23.9,M,1.7,M,,*5A
$GPRMC,212416.000,A,2652.2947,S,04905.4600,W,25.40,130.50,151115,,,A*56
$GPGGA,212417.000,2652.2998,S,04905.4537,W,1,8,0.92,23.2,M,1.7,M,,*52
$GPRMC,212417.000,A,2652.2998,S,04905.4537,W,23.92,130.00,151115,,,A*5E
$GPGGA,212418.000,2652.3045,S,04905.4481,W,1,9,0.90,22.3,M,1.7,M,,*5A
$GPRMC,212418.000,A,2652.3045,S,04905.4481,W,21.78,131.99,151115,,,A*52
$GPGGA,212419.000,2652.3090,S,04905.4434,W,1,9,0.90,21.5,M,1.7,M,,*58
$GPRMC,212419.000,A,2652.3090,S,04905.4434,W,20.09,133.87,151115,,,A*5F
$GPGGA,212420.000,2652.3133,S,04905.4393,W,1,9,0.90,21.2,M,1.7,M,,*57
$GPRMC,212420.000,A,2652.3133,S,04905.4393,W,18.53,134.81,151115,,,A*52
$GPGGA,212421.000,2652.3172,S,04905.4356,W,1,9,0.90,21.0,M,1.7,M,,*58
$GPRMC,212421.000,A,2652.3172,S,04905.4356,W,17.12,135.25,151115,,,A*5A
$GPGGA,212422.000,2652.3209,S,04905.4319,W,1,9,0.90,20.8,M,1.7,M,,*56
$GPRMC,212422.000,A,2652.3209,S,04905.4319,W,16.50,135.54,151115,,,A*5C
$GPGGA,212423.000,2652.3250,S,04905.4280,W,1,9,0.90,20.2,M,1.7,M,,*50
$GPRMC,212423.000,A,2652.3250,S,04905.4280,W,17.35,134.52,151115,,,A*55
$GPGGA,212454.000,2652.5239,S,04905.2468,W,1,9,0.89,20.7,M,1.7,M,,*52
$GPRMC,212454.000,A,2652.5239,S,04905.2468,W,31.99,159.67,151115,,,A*55
$GPGGA,212455.000,2652.5324,S,04905.2439,W,1,9,0.89,21.1,M,1.7,M,,*5D
$GPRMC,212455.000,A,2652.5324,S,04905.2439,W,32.17,164.86,151115,,,A*59
$GPGGA,212456.000,2652.5412,S,04905.2419,W,1,9,0.89,21.6,M,1.7,M,,*59
$GPRMC,212456.000,A,2652.5412,S,04905.2419,W,32.23,170.18,151115,,,A*5F
$GPGGA,212457.000,2652.5501,S,04905.2406,W,1,9,0.85,22.0,M,1.7,M,,*5C
$GPRMC,212457.000,A,2652.5501,S,04905.2406,W,32.05,173.91,151115,,,A*55
$GPGGA,212458.000,2652.5590,S,04905.2398,W,1,9,0.85,22.3,M,1.7,M,,*58
$GPRMC,212458.000,A,2652.5590,S,04905.2398,W,32.23,176.56,151115,,,A*58
$GPGGA,212459.000,2652.5680,S,04905.2394,W,1,9,0.89,22.4,M,1.7,M,,*5C
$GPRMC,212459.000,A,2652.5680,S,04905.2394,W,32.42,178.20,151115,,,A*5F
$GPGGA,212500.000,2652.5771,S,04905.2393,W,1,9,0.89,22.3,M,1.7,M,,*5E
$GPRMC,212500.000,A,2652.5771,S,04905.2393,W,32.72,178.90,151115,,,A*52
$GPGGA,212501.000,2652.5863,S,04905.2388,W,1,9,0.89,22.3,M,1.7,M,,*59
$GPRMC,212501.000,A,2652.5863,S,04905.2388,W,33.08,175.53,151115,,,A*5B
$GPGGA,212502.000,2652.5956,S,04905.2378,W,1,9,0.89,22.0,M,1.7,M,,*51
$GPRMC,212502.000,A,2652.5956,S,04905.2378,W,33.32,171.44,151115,,,A*5B
$GPGGA,212503.000,2652.6048,S,04905.2361,W,1,9,0.85,21.8,M,1.7,M,,*5A
$GPRMC,212503.000,A,2652.6048,S,04905.2361,W,33.55,168.49,151115,,,A*53
$GPGGA,212534.000,2652.8027,S,04905.1631,W,1,9,0.85,19.5,M,1.7,M,,*5C
$GPRMC,212534.000,A,2652.8027,S,04905.1631,W,0.04,160.43,151115,,,A*65
$GPGGA,212535.000,2652.8027,S,04905.1630,W,1,9,0.85,19.6,M,1.7,M,,*5F
$GPRMC,212535.000,A,2652.8027,S,04905.1630,W,0.02,160.20,151115,,,A*66
$GPGGA,212536.000,2652.8026,S,04905.1630,W,1,9,0.85,19.6,M,1.7,M,,*5D
$GPRMC,212536.000,A,2652.8026,S,04905.1630,W,0.00,160.20,151115,,,A*66
$GPGGA,212537.000,2652.8027,S,04905.1628,W,1,9,0.85,19.6,M,1.7,M,,*54
$GPRMC,212537.000,A,2652.8027,S,04905.1628,W,0.00,160.20,151115,,,A*6F
$GPGGA,212538.000,2652.8027,S,04905.1628,W,1,9,0.85,19.6,M,1.7,M,,*5B
$GPRMC,212538.000,A,2652.8027,S,04905.1628,W,0.00,160.20,151115,,,A*60
$GPGGA,212539.000,2652.8027,S,04905.1628,W,1,9,0.85,19.6,M,1.7,M,,*5A
$GPRMC,212539.000,A,2652.8027,S,04905.1628,W,0.00,160.20,151115,,,A*61
$GPGGA,212540.000,2652.8027,S,04905.1628,W,1,9,0.89,19.6,M,1.7,M,,*58
$GPRMC,212540.000,A,2652.8027,S,04905.1628,W,0.00,160.20,151115,,,A*6F
$GPGGA,212541.000,2652.8027,S,04905.1628,W,1,9,0.85,19.6,M,1.7,M,,*55
$GPRMC,212541.000,A,2652.8027,S,04905.1628,W,0.00,160.20,151115,,,A*6E
$GPGGA,212542.000,2652.8027,S,04905.1628,W,1,9,0.85,19.6,M,1.7,M,,*56
$GPRMC,212542.000,A,2652.8027,S,04905.1628,W,0.00,160.20,151115,,,A*6D
$GPGGA,212543.000,2652.8027,S,04905.1628,W,1,9,0.85,19.6,M,1.7,M,,*57
$GPRMC,212543.000,A,2652.8027,S,04905.1628,W,0.00,160.20,151115,,,A*6C
$GPGGA,212614.000,2652.9130,S,04905.1213,W,1,8,0.99,20.9,M,1.7,M,,*55
$GPRMC,212614.000,A,2652.9130,S,04905.1213,W,32.24,158.64,151115,,,A*5B
$GPGGA,212615.000,2652.9217,S,04905.1174,W,1,8,0.99,20.8,M,1.7,M,,*51
$GPRMC,212615.000,A,2652.9217,S,04905.1174,W,34.21,158.40,151115,,,A*5B
$GPGGA,212616.000,2652.9309,S,04905.1134,W,1,8,0.99,20.8,M,1.7,M,,*58
$GPRMC,212616.000,A,2652.9309,S,04905.1134,W,35.76,158.70,151115,,,A*52
$GPGGA,212617.000,2652.9404,S,04905.1093,W,1,8,0.99,21.0,M,1.7,M,,*56
$GPRMC,212617.000,A,2652.9404,S,04905.1093,W,36.55,158.96,151115,,,A*5F
$GPGGA,212618.000,2652.9502,S,04905.1051,W,1,9,0.89,21.1,M,1.7,M,,*51
$GPRMC,212618.000,A,2652.9502,S,04905.1051,W,38.17,158.37,151115,,,A*5A
$GPGGA,212619.000,2652.9604,S,04905.1006,W,1,9,0.89,21.3,M,1.7,M,,*55
$GPRMC,212619.000,A,2652.9604,S,04905.1006,W,39.68,158.10,151115,,,A*50
$GPGGA,212620.000,2652.9710,S,04905.0959,W,1,9,0.89,21.4,M,1.7,M,,*5E
$GPRMC,212620.000,A,2652.9710,S,04905.0959,W,41.30,158.59,151115,,,A*53
$GPGGA,212621.000,2652.9821,S,04905.0911,W,1,9,0.89,21.4,M,1.7,M,,*5E
$GPRMC,212621.000,A,2652.9821,S,04905.0911,W,43.41,158.81,151115,,,A*52
$GPGGA,212622.000,2652.9937,S,04905.0861,W,1,9,0.89,21.0,M,1.7,M,,*59
$GPRMC,212622.000,A,2652.9937,S,04905.0861,W,44.99,158.77,151115,,,A*5A
$GPGGA,212623.000,2653.0055,S,04905.0810,W,1,9,0.89,20.2,M,1.7,M,,*58
$GPRMC,212623.000,A,2653.0055,S,04905.0810,W,45.01,158.85,151115,,,A*55
$GPGGA,212654.000,2653.2410,S,04905.0165,W,1,7,1.19,22.1,M,1.7,M,,*53
$GPRMC,212654.000,A,2653.2410,S,04905.0165,W,24.21,236.91,151115,,,A*52
$GPGGA,212655.000,2653.2446,S,04905.0230,W,1,7,1.19,22.1,M,1.7,M,,*52
$GPRMC,212655.000,A,2653.2446,S,04905.0230,W,24.50,238.15,151115,,,A*57
$GPGGA,212656.000,2653.2483,S,04905.0296,W,1,8,0.99,22.0,M,1.7,M,,*53
$GPRMC,212656.000,A,2653.2483,S,04905.0296,W,24.80,237.36,151115,,,A*52
$GPGGA,212657.000,2653.2520,S,04905.0364,W,1,8,0.99,21.8,M,1.7,M,,*5D
$GPRMC,212657.000,A,2653.2520,S,04905.0364,W,25.55,238.33,151115,,,A*54
$GPGGA,212658.000,2653.2557,S,04905.0435,W,1,9,0.89,21.5,M,1.7,M,,*5C
$GPRMC,212658.000,A,2653.2557,S,04905.0435,W,26.22,239.67,151115,,,A*5B
$GPGGA,212659.000,2653.2595,S,04905.0508,W,1,9,0.89,21.4,M,1.7,M,,*5D
$GPRMC,212659.000,A,2653.2595,S,04905.0508,W,26.96,239.50,151115,,,A*50
$GPGGA,212700.000,2653.2634,S,04905.0582,W,1,9,0.89,21.2,M,1.7,M,,*5C
$GPRMC,212700.000,A,2653.2634,S,04905.0582,W,27.35,239.56,151115,,,A*59
$GPGGA,212701.000,2653.2674,S,04905.0657,W,1,9,0.89,20.9,M,1.7,M,,*58
$GPRMC,212701.000,A,2653.2674,S,04905.0657,W,27.83,239.76,151115,,,A*58
$GPGGA,212702.000,2653.2715,S,04905.0733,W,1,9,0.89,20.4,M,1.7,M,,*53
$GPRMC,212702.000,A,2653.2715,S,04905.0733,W,28.24,239.42,151115,,,A*5B
$GPGGA,212703.000,2653.2755,S,04905.0811,W,1,9,0.89,20.0,M,1.7,M,,*5D
$GPRMC,212703.000,A,2653.2755,S,04905.0811,W,28.65,239.62,151115,,,A*56
$GPGGA,212734.000,2653.3987,S,04905.2664,W,1,8,0.92,18.2,M,1.7,M,,*55
$GPRMC,212734.000,A,2653.3987,S,04905.2664,W,5.91,212.95,151115,,,A*69
$GPGGA,212735.000,2653.3989,S,04905.2672,W,1,9,0.89,18.0,M,1.7,M,,*54
$GPRMC,212735.000,A,2653.3989,S,04905.2672,W,2.70,212.95,151115,,,A*69
$GPGGA,212736.000,2653.3989,S,04905.2677,W,1,9,0.85,18.0,M,1.7,M,,*5E
$GPRMC,212736.000,A,2653.3989,S,04905.2677,W,0.06,212.95,151115,,,A*6C
$GPGGA,212737.000,2653.3988,S,04905.2678,W,1,9,0.85,17.9,M,1.7,M,,*57
$GPRMC,212737.000,A,2653.3988,S,04905.2678,W,0.06,212.95,151115,,,A*63
$GPGGA,212738.000,2653.3986,S,04905.2679,W,1,9,0.85,17.8,M,1.7,M,,*56
$GPRMC,212738.000,A,2653.3986,S,04905.2679,W,0.05,212.95,151115,,,A*60
$GPGGA,212739.000,2653.3986,S,04905.2680,W,1,9,0.85,17.7,M,1.7,M,,*5E
$GPRMC,212739.000,A,2653.3986,S,04905.2680,W,0.03,212.95,151115,,,A*61
$GPGGA,212740.000,2653.3986,S,04905.2680,W,1,9,0.85,17.7,M,1.7,M,,*50
$GPRMC,212740.000,A,2653.3986,S,04905.2680,W,0.03,212.95,151115,,,A*6F
$GPGGA,212741.000,2653.3986,S,04905.2679,W,1,9,0.85,17.7,M,1.7,M,,*57
$GPRMC,212741.000,A,2653.3986,S,04905.2679,W,0.02,212.95,151115,,,A*69
$GPGGA,212742.000,2653.3986,S,04905.2678,W,1,8,0.92,17.7,M,1.7,M,,*52
$GPRMC,212742.000,A,2653.3986,S,04905.2678,W,0.02,212.95,151115,,,A*6B
$GPGGA,212743.000,2653.3987,S,04905.2678,W,1,8,0.92,17.7,M,1.7,M,,*52
$GPRMC,212743.000,A,2653.3987,S,04905.2678,W,0.02,212.95,151115,,,A*6B
$GPGGA,212814.000,2653.3999,S,04905.2679,W,1,9,0.85,17.8,M,1.7,M,,*59
$GPRMC,212814.000,A,2653.3999,S,04905.2679,W,0.64,193.12,151115,,,A*6D
$GPGGA,212815.000,2653.4001,S,04905.2680,W,1,9,0.85,17.8,M,1.7,M,,*51
$GPRMC,212815.000,A,2653.4001,S,04905.2680,W,3.30,193.12,151115,,,A*67
$GPGGA,212816.000,2653.4010,S,04905.2691,W,1,9,0.85,17.7,M,1.7,M,,*5D
$GPRMC,212816.000,A,2653.4010,S,04905.2691,W,6.73,217.35,151115,,,A*6C
$GPGGA,212817.000,2653.4029,S,04905.2705,W,1,9,0.89,17.7,M,1.7,M,,*56
$GPRMC,212817.000,A,2653.4029,S,04905.2705,W,10.25,215.93,151115,,,A*51
$GPGGA,212818.000,2653.4057,S,04905.2716,W,1,9,0.89,17.8,M,1.7,M,,*5D
$GPRMC,212818.000,A,2653.4057,S,04905.2716,W,11.92,213.85,151115,,,A*59
$GPGGA,212819.000,2653.4090,S,04905.2721,W,1,9,0.85,17.8,M,1.7,M,,*5F
$GPRMC,212819.000,A,2653.4090,S,04905.2721,W,13.61,210.60,151115,,,A*51
$GPGGA,212820.000,2653.4131,S,04905.2714,W,1,9,0.89,18.0,M,1.7,M,,*52
$GPRMC,212820.000,A,2653.4131,S,04905.2714,W,14.50,163.73,151115,,,A*57
$GPGGA,212821.000,2653.4167,S,04905.2695,W,1,9,0.89,18.5,M,1.7,M,,*5D
$GPRMC,212821.000,A,2653.4167,S,04905.2695,W,15.97,149.25,151115,,,A*5C
$GPGGA,212822.000,2653.4205,S,04905.2664,W,1,9,0.89,19.5,M,1.7,M,,*56
$GPRMC,212822.000,A,2653.4205,S,04905.2664,W,15.10,133.88,151115,,,A*53
$GPGGA,212823.000,2653.4244,S,04905.2623,W,1,9,0.85,20.3,M,1.7,M,,*51
$GPRMC,212823.000,A,2653.4244,S,04905.2623,W,18.20,132.14,151115,,,A*5E
$GPGGA,212854.000,2653.6185,S,04905.0915,W,1,9,0.89,25.5,M,1.7,M,,*5A
$GPRMC,212854.000,A,2653.6185,S,04905.0915,W,31.49,139.95,151115,,,A*5C
$GPGGA,212855.000,2653.6252,S,04905.0852,W,1,9,0.89,25.4,M,1.7,M,,*51
$GPRMC,212855.000,A,2653.6252,S,04905.0852,W,31.32,139.49,151115,,,A*5B
$GPGGA,212856.000,2653.6320,S,04905.0791,W,1,7,1.05,24.8,M,1.7,M,,*50
$GPRMC,212856.000,A,2653.6320,S,04905.0791,W,31.57,139.33,151115,,,A*52
$GPGGA,212857.000,2653.6387,S,04905.0730,W,1,9,0.89,24.6,M,1.7,M,,*52
$GPRMC,212857.000,A,2653.6387,S,04905.0730,W,31.56,139.71,151115,,,A*52
$GPGGA,212858.000,2653.6454,S,04905.0669,W,1,8,0.95,25.0,M,1.7,M,,*52
$GPRMC,212858.000,A,2653.6454,S,04905.0669,W,31.62,139.82,151115,,,A*52
$GPGGA,212859.000,2653.6519,S,04905.0608,W,1,9,0.89,25.3,M,1.7,M,,*53
$GPRMC,212859.000,A,2653.6519,S,04905.0608,W,30.82,139.46,151115,,,A*5B
$GPGGA,212900.000,2653.6585,S,04905.0545,W,1,9,0.89,25.4,M,1.7,M,,*56
$GPRMC,212900.000,A,2653.6585,S,04905.0545,W,30.88,138.85,151115,,,A*5D
$GPGGA,212901.000,2653.6651,S,04905.0481,W,1,9,0.89,25.4,M,1.7,M,,*54
$GPRMC,212901.000,A,2653.6651,S,04905.0481,W,31.19,138.48,151115,,,A*57
$GPGGA,212902.000,2653.6716,S,04905.0418,W,1,9,0.89,25.4,M,1.7,M,,*55
$GPRMC,212902.000,A,2653.6716,S,04905.0418,W,31.50,138.60,151115,,,A*51
$GPGGA,212903.000,2653.6782,S,04905.0353,W,1,9,0.89,25.5,M,1.7,M,,*50
$GPRMC,212903.000,A,2653.6782,S,04905.0353,W,31.18,138.61,151115,,,A*58
$GPGGA,212934.000,2653.8745,S,04904.8478,W,1,9,0.89,24.6,M,1.7,M,,*54
$GPRMC,212934.000,A,2653.8745,S,04904.8478,W,29.21,146.97,151115,,,A*5D
$GPGGA,212935.000,2653.8816,S,04904.8431,W,1,9,0.89,24.2,M,1.7,M,,*55
$GPRMC,212935.000,A,2653.8816,S,04904.8431,W,29.82,151.30,151115,,,A*5A
$GPGGA,212936.000,2653.8892,S,04904.8390,W,1,9,0.89,23.5,M,1.7,M,,*56
$GPRMC,212936.000,A,2653.8892,S,04904.8390,W,30.41,155.92,151115,,,A*52
$GPGGA,212937.000,2653.8971,S,04904.8353,W,1,9,0.89,22.9,M,1.7,M,,*59
$GPRMC,212937.000,A,2653.8971,S,04904.8353,W,30.66,157.80,151115,,,A*54
$GPGGA,212938.000,2653.9050,S,04904.8316,W,1,9,0.85,22.8,M,1.7,M,,*51
$GPRMC,212938.000,A,2653.9050,S,04904.8316,W,30.68,157.71,151115,,,A*51
$GPGGA,212939.000,2653.9128,S,04904.8278,W,1,9,0.89,23.3,M,1.7,M,,*51
$GPRMC,212939.000,A,2653.9128,S,04904.8278,W,30.27,156.16,151115,,,A*5C
$GPGGA,212940.000,2653.9203,S,04904.8238,W,1,8,0.99,23.9,M,1.7,M,,*5B
$GPRMC,212940.000,A,2653.9203,S,04904.8238,W,29.67,153.82,151115,,,A*58
$GPGGA,212941.000,2653.9276,S,04904.8195,W,1,8,0.99,24.4,M,1.7,M,,*56
$GPRMC,212941.000,A,2653.9276,S,04904.8195,W,29.05,150.27,151115,,,A*57
$GPGGA,212942.000,2653.9346,S,04904.8149,W,1,9,0.89,24.8,M,1.7,M,,*5A
$GPRMC,212942.000,A,2653.9346,S,04904.8149,W,28.98,149.20,151115,,,A*5D
$GPGGA,212943.000,2653.9415,S,04904.8103,W,1,9,0.89,25.1,M,1.7,M,,*5C
$GPRMC,212943.000,A,2653.9415,S,04904.8103,W,28.70,149.06,151115,,,A*51
$GPGGA,213014.000,2654.1058,S,04904.6780,W,1,9,0.88,25.8,M,1.7,M,,*5F
$GPRMC,213014.000,A,2654.1058,S,04904.6780,W,28.74,133.39,151115,,,A*5F
$GPGGA,213015.000,2654.1112,S,04904.6718,W,1,9,0.88,25.1,M,1.7,M,,*59
$GPRMC,213015.000,A,2654.1112,S,04904.6718,W,26.68,133.46,151115,,,A*5B
$GPGGA,213016.000,2654.1159,S,04904.6660,W,1,9,0.88,24.7,M,1.7,M,,*5C
$GPRMC,213016.000,A,2654.1159,S,04904.6660,W,23.92,132.56,151115,,,A*59
$GPGGA,213017.000,2654.1202,S,04904.6609,W,1,9,0.88,24.4,M,1.7,M,,*5C
$GPRMC,213017.000,A,2654.1202,S,04904.6609,W,21.37,132.94,151115,,,A*59
$GPGGA,213018.000,2654.1247,S,04904.6568,W,1,9,0.88,24.3,M,1.7,M,,*51
$GPRMC,213018.000,A,2654.1247,S,04904.6568,W,20.45,143.89,151115,,,A*5D
$GPGGA,213019.000,2654.1297,S,04904.6542,W,1,9,0.88,24.1,M,1.7,M,,*57
$GPRMC,213019.000,A,2654.1297,S,04904.6542,W,19.84,161.88,151115,,,A*5F
$GPGGA,213020.000,2654.1353,S,04904.6533,W,1,9,0.88,23.8,M,1.7,M,,*5C
$GPRMC,213020.000,A,2654.1353,S,04904.6533,W,20.47,178.00,151115,,,A*57
$GPGGA,213021.000,2654.1414,S,04904.6538,W,1,9,0.88,23.0,M,1.7,M,,*5A
$GPRMC,213021.000,A,2654.1414,S,04904.6538,W,21.65,184.63,151115,,,A*5E
$GPGGA,213022.000,2654.1477,S,04904.6544,W,1,9,0.88,22.7,M,1.7,M,,*51
$GPRMC,213022.000,A,2654.1477,S,04904.6544,W,23.48,184.52,151115,,,A*5C
$GPGGA,213023.000,2654.1546,S,04904.6553,W,1,9,0.88,22.5,M,1.7,M,,*57
$GPRMC,213023.000,A,2654.1546,S,04904.6553,W,25.31,186.63,151115,,,A*50
$GPGGA,213054.000,2654.3245,S,04904.6167,W,1,8,0.97,20.6,M,1.7,M,,*5C
$GPRMC,213054.000,A,2654.3245,S,04904.6167,W,0.04,162.71,151115,,,A*6D
$GPGGA,213055.000,2654.3243,S,04904.6167,W,1,9,0.85,20.6,M,1.7,M,,*59
$GPRMC,213055.000,A,2654.3243,S,04904.6167,W,0.03,162.71,151115,,,A*6D
$GPGGA,213056.000,2654.3244,S,04904.6166,W,1,9,0.85,20.5,M,1.7,M,,*5F
$GPRMC,213056.000,A,2654.3244,S,04904.6166,W,0.02,162.71,151115,,,A*69
$GPGGA,213057.000,2654.3244,S,04904.6166,W,1,9,0.85,20.5,M,1.7,M,,*5E
$GPRMC,213057.000,A,2654.3244,S,04904.6166,W,0.01,162.71,151115,,,A*6B
$GPGGA,213058.000,2654.3245,S,04904.6167,W,1,9,0.85,20.5,M,1.7,M,,*51
$GPRMC,213058.000,A,2654.3245,S,04904.6167,W,0.08,162.71,151115,,,A*6D
$GPGGA,213059.000,2654.3247,S,04904.6166,W,1,8,0.97,20.5,M,1.7,M,,*51
$GPRMC,213059.000,A,2654.3247,S,04904.6166,W,0.19,162.71,151115,,,A*6F
$GPGGA,213100.000,2654.3252,S,04904.6164,W,1,9,0.85,20.4,M,1.7,M,,*59
$GPRMC,213100.000,A,2654.3252,S,04904.6164,W,10.88,177.68,151115,,,A*51
$GPGGA,213101.000,2654.3286,S,04904.6163,W,1,9,0.88,20.3,M,1.7,M,,*5C
$GPRMC,213101.000,A,2654.3286,S,04904.6163,W,12.78,180.11,151115,,,A*55
$GPGGA,213102.000,2654.3328,S,04904.6178,W,1,9,0.88,20.2,M,1.7,M,,*51
$GPRMC,213102.000,A,2654.3328,S,04904.6178,W,16.41,205.02,151115,,,A*5B
$GPGGA,213103.000,2654.3373,S,04904.6210,W,1,9,0.88,20.0,M,1.7,M,,*51
$GPRMC,213103.000,A,2654.3373,S,04904.6210,W,20.59,217.55,151115,,,A*54
$GPGGA,213134.000,2654.4905,S,04904.8095,W,1,9,0.88,11.6,M,1.7,M,,*5C
$GPRMC,213134.000,A,2654.4905,S,04904.8095,W,21.68,229.04,151115,,,A*57
$GPGGA,213135.000,2654.4942,S,04904.8148,W,1,9,0.88,11.2,M,1.7,M,,*5B
$GPRMC,213135.000,A,2654.4942,S,04904.8148,W,22.04,229.75,151115,,,A*5B
$GPGGA,213136.000,2654.4980,S,04904.8202,W,1,9,0.88,11.1,M,1.7,M,,*58
$GPRMC,213136.000,A,2654.4980,S,04904.8202,W,22.07,230.37,151115,,,A*56
$GPGGA,213137.000,2654.5019,S,04904.8253,W,1,9,0.88,11.0,M,1.7,M,,*54
$GPRMC,213137.000,A,2654.5019,S,04904.8253,W,21.60,229.47,151115,,,A*56
$GPGGA,213138.000,2654.5057,S,04904.8304,W,1,9,0.88,10.8,M,1.7,M,,*5B
$GPRMC,213138.000,A,2654.5057,S,04904.8304,W,21.59,228.38,151115,,,A*53
$GPGGA,213139.000,2654.5095,S,04904.8354,W,1,9,0.88,10.6,M,1.7,M,,*5F
$GPRMC,213139.000,A,2654.5095,S,04904.8354,W,21.25,227.65,151115,,,A*55
$GPGGA,213140.000,2654.5132,S,04904.8404,W,1,9,0.88,9.1,M,1.7,M,,*60
$GPRMC,213140.000,A,2654.5132,S,04904.8404,W,20.53,227.79,151115,,,A*58
$GPGGA,213141.000,2654.5168,S,04904.8450,W,1,9,0.88,8.8,M,1.7,M,,*67
$GPRMC,213141.000,A,2654.5168,S,04904.8450,W,19.43,227.91,151115,,,A*5A
$GPGGA,213142.000,2654.5206,S,04904.8492,W,1,9,0.88,8.9,M,1.7,M,,*60
$GPRMC,213142.000,A,2654.5206,S,04904.8492,W,18.87,228.64,151115,,,A*50
$GPGGA,213143.000,2654.5240,S,04904.8536,W,1,9,0.88,8.9,M,1.7,M,,*6C
$GPRMC,213143.000,A,2654.5240,S,04904.8536,W,18.82,228.80,151115,,,A*53
$GPGGA,213214.000,2654.5641,S,04904.9228,W,1,9,0.85,12.0,M,1.7,M,,*5E
$GPRMC,213214.000,A,2654.5641,S,04904.9228,W,0.08,244.55,151115,,,A*67
$GPGGA,213215.000,2654.5643,S,04904.9230,W,1,9,0.85,12.0,M,1.7,M,,*54
$GPRMC,213215.000,A,2654.5643,S,04904.9230,W,0.13,244.55,151115,,,A*67
$GPGGA,213216.000,2654.5643,S,04904.9234,W,1,9,0.85,12.1,M,1.7,M,,*52
$GPRMC,213216.000,A,2654.5643,S,04904.9234,W,0.16,244.55,151115,,,A*65
$GPGGA,213217.000,2654.5643,S,04904.9239,W,1,9,0.85,12.1,M,1.7,M,,*5E
$GPRMC,213217.000,A,2654.5643,S,04904.9239,W,0.05,244.55,151115,,,A*6B
$GPGGA,213218.000,2654.5642,S,04904.9240,W,1,9,0.85,12.2,M,1.7,M,,*5D
$GPRMC,213218.000,A,2654.5642,S,04904.9240,W,0.04,244.55,151115,,,A*6A
$GPGGA,213219.000,2654.5641,S,04904.9239,W,1,9,0.85,12.3,M,1.7,M,,*50
$GPRMC,213219.000,A,2654.5641,S,04904.9239,W,0.00,244.55,151115,,,A*62
$GPGGA,213220.000,2654.5641,S,04904.9239,W,1,9,0.88,12.3,M,1.7,M,,*57
$GPRMC,213220.000,A,2654.5641,S,04904.9239,W,0.00,244.55,151115,,,A*68
$GPGGA,213221.000,2654.5641,S,04904.9240,W,1,9,0.85,12.3,M,1.7,M,,*55
$GPRMC,213221.000,A,2654.5641,S,04904.9240,W,0.06,244.55,151115,,,A*61
$GPGGA,213222.000,2654.5641,S,04904.9242,W,1,9,0.85,12.3,M,1.7,M,,*54
$GPRMC,213222.000,A,2654.5641,S,04904.9242,W,0.00,244.55,151115,,,A*66